{
    "type": "FeatureCollection",
    "features": [
        {
            "type": "Feature",
            "properties": {
                "name": "City Hall"
            },
            "geometry": {
                "type": "Point",
                "coordinates": [-121.982134, 37.552289]
            }
        },
        {
            "type": "Feature",
            "properties": {
                "name": "Ohlone College"
            },
            "geometry": {
                "type": "Point",
                "coordinates": [-121.914563, 37.529738]
            }
        },
        {
            "type": "Feature",
            "properties": {
                "name": "Misson San José"
            },
            "geometry": {
                "type": "Point",
                "coordinates": [-121.919689, 37.533446]
            }
        },
        {
            "type": "Feature",
            "properties": {
                "name": "Niles Town Plaza"
            },
            "geometry": {
                "type": "Point",
                "coordinates": [-121.978603, 37.577231]
            }
        },
        {
            "type": "Feature",
            "properties": {
                "name": "Central Park"
            },
            "geometry": {
                "type": "Point",
                "coordinates": [-121.967036, 37.548160]
            }
        },
        {
            "type": "Feature",
            "properties": {
                "name": "Fremont BART"
            },
            "geometry": {
                "type": "Point",
                "coordinates": [-121.977114, 37.557481]
            }
        },
        {
            "type": "Feature",
            "properties": {
                "name": "Warm Springs / South Fremont BART"
            },
            "geometry": {
                "type": "Point",
                "coordinates": [-121.939127, 37.502060]
            }
        },
        {
            "type": "Feature",
            "properties": {
                "name": "American High School"
            },
            "geometry": {
                "type": "Point",
                "coordinates": [-122.016464, 37.565350]
            }
        },
        {
            "type": "Feature",
            "properties": {
                "name": "Washington High School"
            },
            "geometry": {
                "type": "Point",
                "coordinates": [-121.994827, 37.552823]
            }
        },
        {
            "type": "Feature",
            "properties": {
                "name": "Mission San José High School"
            },
            "geometry": {
                "type": "Point",
                "coordinates": [-121.933798, 37.544285]
            }
        },
        {
            "type": "Feature",
            "properties": {
                "name": "Irvington High School"
            },
            "geometry": {
                "type": "Point",
                "coordinates": [-121.966990, 37.523860]
            }
        },
        {
            "type": "Feature",
            "properties": {
                "name": "John F Kennedy High School"
            },
            "geometry": {
                "type": "Point",
                "coordinates": [-121.986653, 37.528648]
            }
        },
        {
            "type": "Feature",
            "properties": {
                "name": "Centerville Middle School"
            },
            "geometry": {
                "type": "Point",
                "coordinates": [-122.000760, 37.556512]
            }
        },
        {
            "type": "Feature",
            "properties": {
                "name": "Hopkins Middle School"
            },
            "geometry": {
                "type": "Point",
                "coordinates": [-121.941633, 37.546544]
            }
        },
        {
            "type": "Feature",
            "properties": {
                "name": "Thornton Middle School"
            },
            "geometry": {
                "type": "Point",
                "coordinates": [-122.015818, 37.556766]
            }
        },
        {
            "type": "Feature",
            "properties": {
                "name": "Walters Middle School"
            },
            "geometry": {
                "type": "Point",
                "coordinates": [-121.982893, 37.537353]
            }
        },
        {
            "type": "Feature",
            "properties": {
                "name": "Horner Middle School"
            },
            "geometry": {
                "type": "Point",
                "coordinates": [-121.964780, 37.529879]
            }
        },
        {
            "type": "Feature",
            "properties": {
                "name": "Vallejo Mill Historical Park"
            },
            "geometry": {
                "type": "Point",
                "coordinates": [-121.970978, 37.578708]
            }
        },
        {
            "type": "Feature",
            "properties": {
                "name": "Patterson Park"
            },
            "geometry": {
                "type": "Point",
                "coordinates": [-122.032995, 37.562045]
            }
        },
        {
            "type": "Feature",
            "properties": {
                "name": "Gomes Park"
            },
            "geometry": {
                "type": "Point",
                "coordinates": [-121.950981, 37.549928]
            }
        },
        {
            "type": "Feature",
            "properties": {
                "name": "Centerville Community Park"
            },
            "geometry": {
                "type": "Point",
                "coordinates": [-121.989811, 37.554944]
            }
        },
        {
            "type": "Feature",
            "properties": {
                "name": "Irvington Park"
            },
            "geometry": {
                "type": "Point",
                "coordinates": [-121.964129, 37.522272]
            }
        },
        {
            "type": "Feature",
            "properties": {
                "name": "Los Cerritos Park"
            },
            "geometry": {
                "type": "Point",
                "coordinates": [-122.013045, 37.567256]
            }
        },
        {
            "type": "Feature",
            "properties": {
                "name": "Blacow Park"
            },
            "geometry": {
                "type": "Point",
                "coordinates": [-121.974454, 37.527364]
            }
        },
        {
            "type": "Feature",
            "properties": {
                "name": "Rix Park"
            },
            "geometry": {
                "type": "Point",
                "coordinates": [-121.971652, 37.516752]
            }
        },
        {
            "type": "Feature",
            "properties": {
                "name": "Old Mission Community Park"
            },
            "geometry": {
                "type": "Point",
                "coordinates": [-121.924228, 37.521934]
            }
        },
        {
            "type": "Feature",
            "properties": {
                "name": "Marshall Park"
            },
            "geometry": {
                "type": "Point",
                "coordinates": [-121.981799, 37.521453]
            }
        },
        {
            "type": "Feature",
            "properties": {
                "name": "Northgate Community Park"
            },
            "geometry": {
                "type": "Point",
                "coordinates": [-122.040661, 37.579113]
            }
        },
        {
            "type": "Feature",
            "properties": {
                "name": "Frank Fisher Park"
            },
            "geometry": {
                "type": "Point",
                "coordinates": [-122.050892, 37.562590]
            }
        },
        {
            "type": "Feature",
            "properties": {
                "name": "Karl Nordvik Park"
            },
            "geometry": {
                "type": "Point",
                "coordinates": [-122.060255, 37.556070]
            }
        },
        {
            "type": "Feature",
            "properties": {
                "name": "Deep Creek Neighborhood Park"
            },
            "geometry": {
                "type": "Point",
                "coordinates": [-122.054260, 37.573241]
            }
        },
        {
            "type": "Feature",
            "properties": {
                "name": "Harvey Community Park"
            },
            "geometry": {
                "type": "Point",
                "coordinates": [-122.059492, 37.587902]
            }
        },
        {
            "type": "Feature",
            "properties": {
                "name": "Lowry Park"
            },
            "geometry": {
                "type": "Point",
                "coordinates": [-122.055352, 37.585220]
            }
        },
        {
            "type": "Feature",
            "properties": {
                "name": "David Jones Park"
            },
            "geometry": {
                "type": "Point",
                "coordinates": [-122.056241, 37.579132]
            }
        },
        {
            "type": "Feature",
            "properties": {
                "name": "Mystery Park"
            },
            "geometry": {
                "type": "Point",
                "coordinates": [-122.034891, 37.579044]
            }
        },
        {
            "type": "Feature",
            "properties": {
                "name": "Westridge Park"
            },
            "geometry": {
                "type": "Point",
                "coordinates": [-122.021604, 37.564510]
            }
        },
        {
            "type": "Feature",
            "properties": {
                "name": "Cabrillo Trail Park"
            },
            "geometry": {
                "type": "Point",
                "coordinates": [-122.026357, 37.564750]
            }
        },
        {
            "type": "Feature",
            "properties": {
                "name": "Dusterberry Neighborhood Park"
            },
            "geometry": {
                "type": "Point",
                "coordinates": [-122.008910, 37.554249]
            }
        },
        {
            "type": "Feature",
            "properties": {
                "name": "Lone Tree Creek Park"
            },
            "geometry": {
                "type": "Point",
                "coordinates": [-121.915410, 37.475311]
            }
        },
        {
            "type": "Feature",
            "properties": {
                "name": "Warm Springs Community Park"
            },
            "geometry": {
                "type": "Point",
                "coordinates": [-121.921324, 37.485407]
            }
        },
        {
            "type": "Feature",
            "properties": {
                "name": "Booster Park"
            },
            "geometry": {
                "type": "Point",
                "coordinates": [-121.917808, 37.479066]
            }
        },
        {
            "type": "Feature",
            "properties": {
                "name": "Arroyo Agua Caliente Park"
            },
            "geometry": {
                "type": "Point",
                "coordinates": [-121.930819, 37.509615]
            }
        },
        {
            "type": "Feature",
            "properties": {
                "name": "Brookvale Neighborhood Park"
            },
            "geometry": {
                "type": "Point",
                "coordinates": [-122.022241, 37.567854]
            }
        },
        {
            "type": "Feature",
            "properties": {
                "name": "Azeveda Park"
            },
            "geometry": {
                "type": "Point",
                "coordinates": [-121.995216, 37.532220]
            }
        },
        {
            "type": "Feature",
            "properties": {
                "name": "Crandall Creek Park"
            },
            "geometry": {
                "type": "Point",
                "coordinates": [-122.037607, 37.570328]
            }
        },
        {
            "type": "Feature",
            "properties": {
                "name": "Warbler Pocket Park"
            },
            "geometry": {
                "type": "Point",
                "coordinates": [-122.060143, 37.581966]
            }
        },
        {
            "type": "Feature",
            "properties": {
                "name": "Williams Historical Park"
            },
            "geometry": {
                "type": "Point",
                "coordinates": [-121.985648, 37.546742]
            }
        },
        {
            "type": "Feature",
            "properties": {
                "name": "Buena Vista Park"
            },
            "geometry": {
                "type": "Point",
                "coordinates": [-121.945093, 37.555505]
            }
        },
        {
            "type": "Feature",
            "properties": {
                "name": "Plomosa Park"
            },
            "geometry": {
                "type": "Point",
                "coordinates": [-121.910422, 37.468587]
            }
        },
        {
            "type": "Feature",
            "properties": {
                "name": "Rancho Higuera Historical Park"
            },
            "geometry": {
                "type": "Point",
                "coordinates": [-121.904906, 37.491032]
            }
        }
    ]
}